{
  "cities": [
    {
      "name": "Berlin",
      "displayName": "Berlin",
      "fullName": "Stadt Berlin",
      "type": "Stadt",
      "lng": 13.404954,
      "lat": 52.520008,
      "population": 3677472
    },
    {
      "name": "München",
      "displayName": "München",
      "fullName": "Stadt München",
      "type": "Stadt",
      "lng": 11.576124,
      "lat": 48.137154,
      "population": 1488202
    },
    {
      "name": "Hamburg",
      "displayName": "Hamburg",
      "fullName": "Stadt Hamburg",
      "type": "Stadt",
      "lng": 9.993682,
      "lat": 53.551086,
      "population": 1945532
    },
    {
      "name": "Köln",
      "displayName": "Köln",
      "fullName": "Stadt Köln",
      "type": "Stadt",
      "lng": 6.953101,
      "lat": 50.935173,
      "population": 1073096
    },
    {
      "name": "Frankfurt",
      "displayName": "Frankfurt",
      "fullName": "Stadt Frankfurt",
      "type": "Stadt",
      "lng": 8.682127,
      "lat": 50.110924,
      "population": 753056
    },
    {
      "name": "Stuttgart",
      "displayName": "Stuttgart",
      "fullName": "Stadt Stuttgart",
      "type": "Stadt",
      "lng": 9.182932,
      "lat": 48.775846,
      "population": 626275
    },
    {
      "name": "Düsseldorf",
      "displayName": "Düsseldorf",
      "fullName": "Stadt Düsseldorf",
      "type": "Stadt",
      "lng": 6.773456,
      "lat": 51.227741,
      "population": 619477
    },
    {
      "name": "Leipzig",
      "displayName": "Leipzig",
      "fullName": "Stadt Leipzig",
      "type": "Stadt",
      "lng": 12.373075,
      "lat": 51.339695,
      "population": 597493
    },
    {
      "name": "Dortmund",
      "displayName": "Dortmund",
      "fullName": "Stadt Dortmund",
      "type": "Stadt",
      "lng": 7.468554,
      "lat": 51.513587,
      "population": 588250
    },
    {
      "name": "Essen",
      "displayName": "Essen",
      "fullName": "Stadt Essen",
      "type": "Stadt",
      "lng": 7.013761,
      "lat": 51.455643,
      "population": 582760
    },
    {
      "name": "Bremen",
      "displayName": "Bremen",
      "fullName": "Stadt Bremen",
      "type": "Stadt",
      "lng": 8.801694,
      "lat": 53.079296,
      "population": 567559
    },
    {
      "name": "Dresden",
      "displayName": "Dresden",
      "fullName": "Stadt Dresden",
      "type": "Stadt",
      "lng": 13.737262,
      "lat": 51.050407,
      "population": 563311
    },
    {
      "name": "Hannover",
      "displayName": "Hannover",
      "fullName": "Stadt Hannover",
      "type": "Stadt",
      "lng": 9.732010,
      "lat": 52.375892,
      "population": 538068
    },
    {
      "name": "Nürnberg",
      "displayName": "Nürnberg",
      "fullName": "Stadt Nürnberg",
      "type": "Stadt",
      "lng": 11.077298,
      "lat": 49.449034,
      "population": 518365
    },
    {
      "name": "Duisburg",
      "displayName": "Duisburg",
      "fullName": "Stadt Duisburg",
      "type": "Stadt",
      "lng": 6.762329,
      "lat": 51.434408,
      "population": 498590
    },
    {
      "name": "Bochum",
      "displayName": "Bochum",
      "fullName": "Stadt Bochum",
      "type": "Stadt",
      "lng": 7.216236,
      "lat": 51.481846,
      "population": 364628
    },
    {
      "name": "Wuppertal",
      "displayName": "Wuppertal",
      "fullName": "Stadt Wuppertal",
      "type": "Stadt",
      "lng": 7.183333,
      "lat": 51.256667,
      "population": 354572
    },
    {
      "name": "Bielefeld",
      "displayName": "Bielefeld",
      "fullName": "Stadt Bielefeld",
      "type": "Stadt",
      "lng": 8.532471,
      "lat": 52.030228,
      "population": 334002
    },
    {
      "name": "Bonn",
      "displayName": "Bonn",
      "fullName": "Stadt Bonn",
      "type": "Stadt",
      "lng": 7.098206,
      "lat": 50.733992,
      "population": 327258
    },
    {
      "name": "Münster",
      "displayName": "Münster",
      "fullName": "Stadt Münster",
      "type": "Stadt",
      "lng": 7.625763,
      "lat": 51.962944,
      "population": 317713
    },
    {
      "name": "Kreis Minden-Lübbecke",
      "displayName": "Minden-Lübbecke",
      "fullName": "Kreis Minden-Lübbecke",
      "type": "Kreis",
      "lng": 8.9,
      "lat": 52.3,
      "population": 311142
    },
    {
      "name": "Bad Oeynhausen",
      "displayName": "Bad Oeynhausen",
      "fullName": "Stadt Bad Oeynhausen",
      "type": "Stadt",
      "lng": 8.7551497,
      "lat": 52.2194707,
      "population": 50305
    },
    {
      "name": "Detmold",
      "displayName": "Detmold",
      "fullName": "Gemeinde Detmold",
      "type": "Gemeinde",
      "lng": 8.8794,
      "lat": 51.9365,
      "population": 74335
    }
  ]
} 