{
  "cities": [
    {
      "name": "Stadt Emmerich",
      "displayName": "Emmerich",
      "fullName": "Stadt Emmerich",
      "type": "Stadt",
      "lng": 6.1641112,
      "lat": 51.8554073,
      "population": 32000
    },
    {
      "name": "Stadt Coburg",
      "displayName": "Coburg",
      "fullName": "Stadt Coburg",
      "type": "Stadt",
      "lng": 10.8931158,
      "lat": 50.2604195,
      "population": 42000
    },
    {
      "name": "Stadt Plochingen",
      "displayName": "Plochingen",
      "fullName": "Stadt Plochingen",
      "type": "Stadt",
      "lng": 9.3795241,
      "lat": 48.7215622,
      "population": 15000
    },
    {
      "name": "Stadt Detmold",
      "displayName": "Detmold",
      "fullName": "Stadt Detmold",
      "type": "Stadt",
      "lng": 8.7939407,
      "lat": 51.9286092,
      "population": 75000
    },
    {
      "name": "Stadt Troisdorf",
      "displayName": "Troisdorf",
      "fullName": "Stadt Troisdorf",
      "type": "Stadt",
      "lng": 7.0636565,
      "lat": 50.8181341,
      "population": 76000
    },
    {
      "name": "Gemeinde Engelskirchen",
      "displayName": "Engelskirchen",
      "fullName": "Gemeinde Engelskirchen",
      "type": "Gemeinde",
      "lng": 8.7963488,
      "lat": 52.2194779,
      "population": 20000
    },
    {
      "name": "Gemeinde Nörvenich",
      "displayName": "Nörvenich",
      "fullName": "Gemeinde Nörvenich",
      "type": "Gemeinde",
      "lng": 6.5371519,
      "lat": 50.801893,
      "population": 11000
    },
    {
      "name": "Stadt Bonn",
      "displayName": "Bonn",
      "fullName": "Stadt Bonn",
      "type": "Stadt",
      "lng": 7.034899,
      "lat": 50.7036567,
      "population": 330
    },
    {
      "name": "Gemeinde Schwalmtal",
      "displayName": "Schwalmtal",
      "fullName": "Gemeinde Schwalmtal",
      "type": "Gemeinde",
      "lng": 6.1879917,
      "lat": 51.2221427,
      "population": 19000
    },
    {
      "name": "Stadt Bergisch Gladbach",
      "displayName": "Bergisch Gladbach",
      "fullName": "Stadt Bergisch Gladbach",
      "type": "Stadt",
      "lng": 7.075797,
      "lat": 50.9735402,
      "population": 113000
    },
    {
      "name": "Rhein-Sieg-Kreis",
      "displayName": "Rhein-Sieg",
      "fullName": "Rhein-Sieg-Kreis",
      "type": "Kreis",
      "lng": 6.9386165,
      "lat": 50.7527993,
      "population": 605000
    }
  ]
}